,City,Lat,Lng,Max Temp,Humidity,Cloudiness,Wind Speed,Country,Date
0,Great Bend,38.36,-98.76,75.51,49,1,16.11,US,1598897680
1,Albany,42.6,-73.97,72.75,48,75,4.92,US,1598897166
2,Labuhan,-6.88,112.21,77.07,80,41,8.16,ID,1598897606
3,Barrow,71.29,-156.79,37.4,86,90,21.92,US,1598897062
4,Sengiley,53.96,48.79,69.8,64,0,4.47,RU,1598897680
5,Busselton,-33.65,115.33,50.67,98,70,19.55,AU,1598897201
6,Qaanaaq,77.48,-69.36,35.11,78,0,2.51,GL,1598897222
7,Mahébourg,-20.41,57.7,71.6,78,75,12.75,MU,1598897319
8,Cape Town,-33.93,18.42,49.05,87,75,8.05,ZA,1598897130
9,Barra do Corda,-5.5,-45.25,102.24,15,0,8.77,BR,1598897681
10,Ilhabela,-23.78,-45.36,74.3,78,51,5.61,BR,1598897681
11,Galveston,29.37,-94.97,92.8,67,75,13.87,US,1598897682
12,Talnakh,69.49,88.4,44.6,100,90,4.47,RU,1598897219
13,Iberia,29.95,-91.75,90.19,75,40,16.11,US,1598897682
14,Mount Gambier,-37.83,140.77,39.2,100,79,9.17,AU,1598897603
15,George Town,5.41,100.34,79.25,88,20,3.36,MY,1598896941
16,Carnarvon,-24.87,113.63,66.2,82,75,12.75,AU,1598897232
17,Mataura,-46.19,168.86,35.2,94,97,3.11,NZ,1598897209
18,Bluff,-46.6,168.33,42.57,65,79,13.33,NZ,1598897208
19,Lázaro Cárdenas,17.96,-102.2,84.43,71,73,3.91,MX,1598897419
20,Puerto Baquerizo Moreno,-0.9,-89.6,71.6,73,75,23.04,EC,1598897683
21,Clyde River,70.47,-68.59,55.4,53,75,9.17,CA,1598897265
22,Ushuaia,-54.8,-68.3,37.4,86,40,31.09,AR,1598897199
23,Hobart,-42.88,147.33,36.75,87,9,6.93,AU,1598897078
24,Abomsa,9.98,39.98,71.71,62,26,6.98,ET,1598897684
25,Pergamino,-33.89,-60.57,59.27,37,100,1.99,AR,1598897685
26,San Roque,36.21,-5.38,73.4,78,20,12.75,ES,1598897685
27,Cabo San Lucas,22.89,-109.91,86.45,78,40,10.29,MX,1598897053
28,Tsimmerbude,54.67,20.13,60.91,82,20,6.71,RU,1598897685
29,Sistranda,63.73,8.83,51.75,58,11,4.7,NO,1598897685
30,Puerto Ayora,-0.74,-90.35,71.6,73,40,20.8,EC,1598897224
31,Atuona,-9.8,-139.03,78.62,79,34,29.01,PF,1598897211
32,Mahon,39.89,4.27,73.4,53,20,6.93,ES,1598897686
33,Karratha,-20.74,116.85,73.11,40,88,6.02,AU,1598897641
34,Tuktoyaktuk,69.45,-133.04,46.4,87,90,14.99,CA,1598897214
35,Arraial do Cabo,-22.97,-42.03,77.0,78,33,17.22,BR,1598897229
36,San Patricio,19.22,-104.7,86.0,74,75,11.41,MX,1598897200
37,Renqiu,38.7,116.09,67.42,73,18,5.99,CN,1598897687
38,Cherskiy,68.75,161.3,34.29,94,100,1.52,RU,1598897204
39,Mar del Plata,-38.0,-57.56,47.05,58,40,11.41,AR,1598897232
40,Kavaratti,10.57,72.64,81.99,79,80,12.59,IN,1598897263
41,Rincon,32.3,-81.24,88.45,59,75,4.7,US,1598897688
42,Saskylakh,71.92,114.08,47.75,69,92,8.43,RU,1598897261
43,Thompson,55.74,-97.86,53.6,71,75,16.11,CA,1598897210
44,Hermosa,14.85,120.48,77.0,88,40,3.36,PH,1598897688
45,Saint-Philippe,-21.36,55.77,63.77,77,40,5.82,RE,1598897202
46,Esperance,-33.87,121.9,50.0,76,0,9.17,AU,1598897255
47,Kaitangata,-46.28,169.85,42.01,76,100,5.99,NZ,1598897270
48,Luau,-10.71,22.22,78.37,39,42,3.22,AO,1598897689
49,Aksha,50.28,113.29,51.85,91,100,4.76,RU,1598897689
50,Rikitea,-23.12,-134.97,69.67,84,96,13.24,PF,1598897213
51,Butaritari,3.07,172.79,83.16,75,19,10.02,KI,1598897219
52,Sitka,57.05,-135.33,57.2,87,90,13.87,US,1598897301
53,Pareora,-44.49,171.21,37.0,97,86,11.99,NZ,1598897690
54,Punta Arenas,-53.15,-70.92,44.29,65,40,19.46,CL,1598897007
55,Tasiilaq,65.61,-37.64,41.0,75,100,13.87,GL,1598897209
56,Lebu,-37.62,-73.65,51.33,61,0,4.81,CL,1598897220
57,Mukdahan,16.58,104.5,77.67,83,33,3.09,TH,1598897692
58,Bredasdorp,-34.53,20.04,51.8,87,36,2.24,ZA,1598897221
59,Hermanus,-34.42,19.23,48.99,89,15,6.02,ZA,1598897205
60,Anadyr,64.75,177.48,28.4,92,75,6.71,RU,1598897693
61,Chute-aux-Outardes,49.12,-68.4,64.4,48,40,10.29,CA,1598897693
62,Hasaki,35.73,140.83,72.45,94,75,10.29,JP,1598896920
63,Saldanha,-33.01,17.94,53.6,71,30,2.24,ZA,1598897212
64,East London,-33.02,27.91,57.2,62,20,6.93,ZA,1598897247
65,Kapaa,22.08,-159.32,78.64,78,1,14.99,US,1598897198
66,Poum,-20.23,164.02,68.95,73,33,12.77,NC,1598897249
67,Ocós,14.51,-92.19,85.23,55,20,3.36,GT,1598897694
68,Port Alfred,-33.59,26.89,58.17,55,34,12.95,ZA,1598897203
69,Vaini,-21.2,-175.2,75.2,94,90,10.29,TO,1598897218
70,Upernavik,72.79,-56.15,38.26,80,88,4.05,GL,1598897234
71,Saint George,37.1,-113.58,86.68,39,1,3.36,US,1598897184
72,Makakilo City,21.35,-158.09,74.61,78,1,3.36,US,1598897302
73,Unaí,-16.36,-46.91,93.15,24,1,8.97,BR,1598897509
74,Chokurdakh,70.63,147.92,39.34,86,100,9.98,RU,1598897199
75,Port Elizabeth,-33.92,25.57,53.6,54,52,4.7,ZA,1598897090
76,Sawākin,19.11,37.33,96.6,34,39,9.89,SD,1598897407
77,Saint Paul Harbor,57.79,-152.41,57.2,67,90,6.93,US,1598897211
78,Aklavik,68.22,-135.01,46.4,81,75,9.17,CA,1598897203
79,Hilo,19.73,-155.09,74.14,78,1,5.82,US,1598897207
80,Tiksi,71.69,128.87,41.47,88,0,9.93,RU,1598897239
81,San Cristobal,7.77,-72.22,86.0,58,40,20.8,VE,1598897325
82,Keflavik,64.0,-22.56,53.15,100,90,16.11,IS,1598897698
83,Poconé,-16.26,-56.62,109.9,10,14,2.04,BR,1598897698
84,Caucaia,-3.74,-38.65,82.89,55,20,17.22,BR,1598897494
85,Hamilton,39.18,-84.53,79.2,68,61,1.99,US,1598897519
86,Yarkovo,57.4,67.08,58.91,87,94,8.81,RU,1598897698
87,Aswān,24.09,32.91,92.91,12,0,12.48,EG,1598897699
88,Norman Wells,65.28,-126.83,51.8,76,75,11.41,CA,1598897299
89,Burns Lake,54.23,-125.75,49.19,85,89,5.06,CA,1598897699
90,Ribeira Grande,38.52,-28.7,78.8,61,20,16.11,PT,1598897248
91,Huanren,41.26,125.37,68.72,93,100,4.74,CN,1598897699
92,Midyat,37.42,41.34,80.6,30,0,6.93,TR,1598897700
93,Weihai,37.5,122.11,81.0,96,84,12.53,CN,1598897700
94,Businga,3.33,20.88,73.44,93,38,2.15,CD,1598897700
95,Shache,38.42,77.24,76.26,19,98,8.97,CN,1598897316
96,Auning,56.43,10.38,58.03,51,12,5.82,DK,1598897701
97,Nacala,-14.54,40.67,71.49,81,54,3.91,MZ,1598897701
98,Pisco,-13.7,-76.22,65.68,68,0,9.17,PE,1598897702
99,Airai,-8.93,125.41,59.56,100,78,4.09,TL,1598897276
100,City of San Pedro,14.35,121.02,80.29,83,84,3.36,PH,1598897702
101,Taree,-31.9,152.47,57.72,67,90,5.82,AU,1598897702
102,Lorengau,-2.02,147.27,81.88,76,10,4.88,PG,1598897215
103,Iqaluit,63.75,-68.51,55.2,66,20,19.46,CA,1598897319
104,Barra Patuca,15.8,-84.28,87.24,62,3,10.18,HN,1598897590
105,New Norfolk,-42.78,147.06,35.85,77,49,2.73,AU,1598897249
106,Kargasok,59.06,80.86,60.37,92,95,13.42,RU,1598897703
107,Alyangula,-13.85,136.42,68.0,94,0,8.21,AU,1598897316
108,Praia da Vitória,38.73,-27.07,77.0,69,40,11.3,PT,1598897602
109,Muli,2.92,73.57,83.59,70,71,8.52,MV,1598897354
110,Puerto Escondido,15.85,-97.07,89.6,52,5,6.93,MX,1598897567
111,Naze,28.37,129.48,82.4,94,75,14.99,JP,1598897222
112,Abu Dhabi,24.47,54.37,99.14,34,7,6.93,AE,1598897654
113,Flin Flon,54.77,-101.86,53.6,81,75,16.11,CA,1598897224
114,Abonnema,4.71,6.79,73.4,100,75,4.7,NG,1598897705
115,Rayachoti,14.05,78.75,80.87,70,58,2.59,IN,1598897705
116,Kisangani,0.52,25.2,75.33,84,90,1.68,CD,1598897559
117,Kulhudhuffushi,6.62,73.07,83.1,74,69,9.78,MV,1598897706
118,Souillac,-20.52,57.52,71.6,78,75,12.75,MU,1598897245
119,São Filipe,14.9,-24.5,77.31,78,81,11.95,CV,1598897230
120,Te Anau,-45.42,167.72,36.57,90,100,4.45,NZ,1598897252
121,Ixtapa,20.7,-105.2,82.4,78,90,5.82,MX,1598897277
122,Kattivākkam,13.22,80.32,86.0,74,20,3.36,IN,1598897706
123,Venkatagiri,13.97,79.58,84.56,70,61,0.85,IN,1598897707
124,Barra de Tecoanapa,16.52,-98.75,86.0,65,5,6.78,MX,1598897707
125,Faanui,-16.48,-151.75,77.38,76,2,23.26,PF,1598897255
126,Jamestown,42.1,-79.24,74.01,60,20,12.75,US,1598897042
127,Avarua,-21.21,-159.78,71.6,64,91,4.7,CK,1598897206
128,Härnösand,62.63,17.94,56.89,76,18,4.7,SE,1598897708
129,Tatishchevo,51.67,45.6,68.38,45,0,6.38,RU,1598897708
130,Torbay,47.67,-52.73,63.66,72,75,32.21,CA,1598897123
131,Grand Gaube,-20.01,57.66,71.01,78,9,5.99,MU,1598897533
132,Naraini,25.18,80.48,81.54,80,69,5.23,IN,1598897709
133,Mbuji-Mayi,-6.15,23.6,78.37,65,85,5.44,CD,1598897709
134,Lakatoro,-16.1,167.42,74.86,86,39,13.27,VU,1598897709
135,Ségou,13.43,-6.22,78.13,85,100,2.19,ML,1598897710
136,Hofn,64.25,-15.21,51.8,100,90,6.93,IS,1598897566
137,Berlevåg,70.86,29.09,46.4,65,20,9.17,NO,1598897301
138,Hithadhoo,-0.6,73.08,82.42,76,91,12.88,MV,1598897221
139,Caravelas,-17.71,-39.25,80.13,61,23,8.34,BR,1598897315
140,Nikolskoye,59.7,30.79,57.96,82,40,2.24,RU,1598897220
141,Banda Aceh,5.56,95.32,78.82,85,97,13.94,ID,1598897626
142,Dekar,-21.53,21.93,60.94,27,0,7.49,BW,1598897711
143,Halifax,44.65,-63.57,63.59,52,75,9.17,CA,1598897711
144,Ashquelon,31.67,34.57,84.06,74,20,8.05,IL,1598897712
145,Nouakchott,18.09,-15.98,87.8,52,19,13.87,MR,1598897712
146,Port Macquarie,-31.43,152.92,57.99,78,82,10.89,AU,1598897601
147,Hvide Sande,56.0,8.13,62.01,73,22,10.13,DK,1598897712
148,Hong Kong,22.29,114.16,80.33,79,6,4.36,HK,1598897218
149,Grindavik,63.84,-22.43,51.8,100,90,16.11,IS,1598897602
150,Walvis Bay,-22.96,14.51,59.4,51,0,11.41,NA,1598897332
151,Tawang Town,27.58,91.87,59.61,78,100,0.76,IN,1598897713
152,Toledo,39.83,-4.0,81.0,21,80,7.11,ES,1598897714
153,Yulara,-25.24,130.99,62.6,36,0,6.93,AU,1598897269
154,Buritis,-15.62,-46.42,93.92,23,1,9.48,BR,1598897425
155,Laguna,38.42,-121.42,75.69,50,1,3.02,US,1598897634
156,Cidreira,-30.18,-50.21,57.7,62,99,10.6,BR,1598897329
157,Praia,14.92,-23.51,84.2,62,75,14.99,CV,1598897715
158,Huambo,-12.78,15.74,71.92,27,69,5.32,AO,1598897245
159,Mbanza-Ngungu,-5.25,14.87,80.06,53,84,9.01,CD,1598897715
160,Katsuura,35.13,140.3,75.07,88,75,16.11,JP,1598897246
161,Flinders,-34.58,150.86,50.43,76,78,1.01,AU,1598897319
162,Kuusamo,65.97,29.18,53.6,71,90,8.05,FI,1598897716
163,Sabang,5.89,95.32,80.65,84,97,21.74,ID,1598897352
164,Qaqortoq,60.72,-46.03,51.8,66,20,4.7,GL,1598897256
165,Oistins,13.07,-59.53,86.0,74,40,14.99,BB,1598897716
166,Kushiro,42.98,144.37,53.46,89,97,7.61,JP,1598897716
167,Homer,59.64,-151.55,52.65,81,90,9.17,US,1598897330
168,Lavrentiya,65.58,-171.0,43.07,73,78,15.9,RU,1598897336
169,Bauchi,10.5,10.0,75.65,82,74,1.66,NG,1598897717
170,Yellowknife,62.46,-114.35,48.09,61,75,9.17,CA,1598897202
171,Saint-Joseph,-21.37,55.62,61.88,77,30,5.82,RE,1598897309
172,Akureyri,65.68,-18.09,59.0,77,75,6.93,IS,1598897718
173,Dīdwāna,27.4,74.57,77.67,81,6,12.03,IN,1598897476
174,Broome,42.25,-75.83,70.47,63,40,8.05,US,1598897243
175,Cockburn Town,21.46,-71.14,87.8,66,40,9.17,TC,1598897297
176,Tyukhtet,56.54,89.3,54.68,95,12,6.8,RU,1598897718
177,Dodge City,37.75,-100.02,73.47,38,90,17.22,US,1598897667
178,Dikson,73.51,80.55,44.28,98,99,10.0,RU,1598897217
179,Chui,-33.7,-53.46,52.29,69,100,10.96,UY,1598897200
180,High Prairie,55.43,-116.49,57.47,56,98,11.21,CA,1598897719
181,Eureka,40.8,-124.16,67.35,67,1,4.7,US,1598897137
182,Guerrero Negro,27.98,-114.06,79.92,51,0,7.87,MX,1598897341
183,Berdigestyakh,62.1,126.7,47.61,91,10,2.04,RU,1598897720
184,Harper,4.38,-7.72,75.76,81,99,10.92,LR,1598897310
185,Port Blair,11.67,92.75,81.37,78,92,5.03,IN,1598897284
186,Laas,46.62,10.7,53.6,66,90,9.17,IT,1598897215
187,Port-Gentil,-0.72,8.78,78.8,78,75,15.7,GA,1598897225
188,Marawi,8.0,124.29,77.0,87,95,5.01,PH,1598897721
189,Bethel,41.37,-73.41,72.07,53,20,6.93,US,1598897214
190,Baharly,38.44,57.43,78.98,30,23,10.29,TM,1598897574
191,Itarema,-2.92,-39.92,86.43,52,0,20.67,BR,1598897721
192,Brae,60.4,-1.35,55.4,76,20,9.17,GB,1598897628
193,Vredendal,-31.67,18.5,52.5,70,97,7.65,ZA,1598897721
194,Semnan,35.57,53.4,77.0,25,40,2.24,IR,1598897722
195,Aripuanã,-9.17,-60.63,105.55,17,33,3.69,BR,1598897291
196,Geraldton,-28.77,114.6,60.8,93,75,17.22,AU,1598897220
197,San Luis,-33.3,-66.34,57.7,40,100,3.83,AR,1598897477
198,Santa Maria,-29.68,-53.81,59.0,54,95,16.11,BR,1598897115
199,Urdoma,61.75,48.54,49.86,86,100,2.98,RU,1598897723
200,Jalu,29.03,21.55,90.93,18,0,11.61,LY,1598897207
201,Vestmannaeyjar,63.44,-20.27,53.6,93,75,14.99,IS,1598897272
202,Kalundborg,55.68,11.09,59.29,59,2,4.7,DK,1598897723
203,Mareeba,-17.0,145.43,65.34,77,90,10.29,AU,1598897328
204,Srednekolymsk,67.45,153.68,37.99,87,53,11.27,RU,1598897242
205,Cayenne,4.93,-52.33,89.6,59,75,12.75,GF,1598897306
206,Mizdah,31.45,12.98,93.04,11,0,17.65,LY,1598897724
207,Amapá,1.0,-52.0,94.6,38,4,6.4,BR,1598897724
208,Høyanger,61.22,6.07,56.5,80,23,3.31,NO,1598897724
209,Baykit,61.67,96.37,52.43,87,93,1.83,RU,1598897629
210,Ayan,56.45,138.17,51.94,79,100,8.25,RU,1598897725
211,Kendari,-3.94,122.5,74.32,93,94,2.21,ID,1598897725
212,Provideniya,64.38,-173.3,43.23,68,22,8.46,RU,1598897226
213,Isfana,39.84,69.53,75.2,33,75,4.47,KG,1598897725
214,Quatre Cocos,-20.21,57.76,71.29,78,75,12.75,MU,1598897268
215,Pevek,69.7,170.31,34.12,92,74,9.28,RU,1598897248
216,Egvekinot,66.32,-179.17,34.74,86,53,13.09,RU,1598897726
217,Sumenep,-7.02,113.87,78.44,81,87,6.42,ID,1598897727
218,Mahanoro,-19.9,48.8,68.32,86,1,3.42,MG,1598897727
219,Bambous Virieux,-20.34,57.76,71.31,78,75,12.75,MU,1598897251
220,Palanga,55.92,21.07,59.0,87,75,5.82,LT,1598897727
221,Obo,5.4,26.49,70.52,92,65,0.58,CF,1598897727
222,Port Hardy,50.7,-127.42,53.6,100,90,2.24,CA,1598897231
223,Polewali,-3.43,119.34,77.65,80,100,4.38,ID,1598897440
224,Vitim,59.45,112.56,48.65,85,9,1.77,RU,1598897728
225,Dhidhdhoo,6.88,73.1,83.12,75,69,9.95,MV,1598897728
226,Sokoni,-6.43,39.55,76.35,69,20,5.82,TZ,1598897584
227,Muzhi,65.37,64.67,46.49,94,100,15.26,RU,1598897728
228,Sanchursk,56.94,47.25,69.31,68,68,12.93,RU,1598897729
229,Banepā,27.63,85.52,73.4,94,75,3.36,NP,1598897266
230,Sāsvad,18.33,74.03,69.89,91,15,7.0,IN,1598897729
231,Honiara,-9.43,159.95,73.4,100,40,2.24,SB,1598897730
232,Wagar,16.15,36.2,88.38,49,82,18.01,SD,1598897730
233,Chadiza,-14.07,32.44,73.38,37,17,7.87,ZM,1598897730
234,Gold Coast,-28.0,153.43,59.76,82,0,4.7,AU,1598897731
235,Ulaangom,49.98,92.07,54.46,59,0,1.63,MN,1598897732
236,Nānākuli,21.39,-158.15,74.44,78,1,3.36,US,1598897732
237,Gondanglegi,-7.75,112.01,74.57,84,11,11.16,ID,1598897733
238,Ayutla,20.12,-104.33,74.7,69,100,4.79,MX,1598897733
239,Koshurnikovo,54.17,93.3,47.97,99,0,2.24,RU,1598897734
240,Guangyuan,32.44,105.82,61.21,86,1,2.8,CN,1598897734
241,Viedma,-40.81,-63.0,50.0,64,1,1.99,AR,1598897250
242,Kota Kinabalu,5.97,116.07,77.0,94,20,6.93,MY,1598897735
243,Celestún,20.87,-90.4,89.98,52,6,3.85,MX,1598897239
244,Dunedin,-45.87,170.5,39.99,85,100,3.0,NZ,1598897143
245,Comodoro Rivadavia,-45.87,-67.5,44.6,81,75,4.7,AR,1598897551
246,Río Gallegos,-51.62,-69.22,48.2,49,40,23.04,AR,1598897736
247,Portland,45.52,-122.68,64.6,63,90,4.7,US,1598897140
248,Belgrade,44.8,20.47,77.97,50,18,9.17,RS,1598897231
249,Los Llanos de Aridane,28.66,-17.92,71.44,64,20,16.11,ES,1598897578
250,Chowchilla,37.12,-120.26,77.47,50,1,4.72,US,1598897736
251,Castro,-24.79,-50.01,74.61,61,10,9.22,BR,1598897244
252,Nanortalik,60.14,-45.24,44.37,86,92,7.61,GL,1598897287
253,Lüderitz,-26.65,15.16,57.85,42,0,26.44,NA,1598897231
254,Tumpat,6.2,102.17,80.29,94,40,3.36,MY,1598897707
255,High Level,58.52,-117.14,50.0,76,75,8.05,CA,1598897618
256,Dhārchula,29.85,80.53,68.38,77,61,0.56,IN,1598897737
257,Oslavany,49.12,16.34,60.17,72,94,5.82,CZ,1598897738
258,Ocampo,21.65,-101.5,71.38,52,68,14.63,MX,1598897738
259,Santiago del Estero,-27.8,-64.26,56.93,43,100,6.89,AR,1598897480
260,Smithers,54.78,-127.17,51.8,87,75,5.82,CA,1598897633
261,Itumba,-9.4,33.18,64.24,50,1,6.55,TZ,1598897738
262,Coyhaique,-45.58,-72.07,46.4,65,20,6.93,CL,1598897231
263,Orsha,54.52,30.41,64.31,91,87,8.72,BY,1598897739
264,Maningrida,-12.07,134.27,70.97,85,3,7.38,AU,1598897739
265,Ko Samui,9.54,99.94,85.39,67,100,3.49,TH,1598897739
266,Nome,64.5,-165.41,52.02,71,75,6.93,US,1598897297
267,Tsiroanomandidy,-18.77,46.03,73.4,41,38,7.29,MG,1598897739
268,Pohrebyshche,49.49,29.26,84.11,45,1,4.05,UA,1598897740
269,Ponta Delgada,37.73,-25.67,78.8,74,20,17.22,PT,1598897580
270,Pirgos,35.12,25.72,84.0,40,0,8.01,GR,1598897740
271,Wewak,-3.55,143.63,79.95,82,26,4.74,PG,1598897740
272,Lagoa,39.05,-27.98,71.11,71,95,9.57,PT,1598897206
273,College,64.86,-147.8,54.03,71,75,3.76,US,1598897269
274,Olafsvik,64.89,-23.71,53.1,80,95,9.75,IS,1598897639
275,Redlands,34.06,-117.18,79.29,44,5,5.88,US,1598897741
276,Klaksvík,62.23,-6.59,51.8,87,91,19.46,FO,1598897166
277,Fort Frances,48.6,-93.4,60.93,72,40,17.22,CA,1598897742
278,Sinjār,36.32,41.88,86.32,14,7,2.86,IQ,1598897742
279,Zhumadian,32.98,114.03,71.42,68,6,7.54,CN,1598897742
280,Ilulissat,69.22,-51.1,44.6,70,40,4.7,GL,1598897237
281,Creston,41.06,-94.36,68.0,68,1,11.41,US,1598897743
282,Melville,40.79,-73.42,73.4,49,1,6.93,US,1598897712
283,‘Āhuimanu,21.44,-157.84,78.69,74,40,11.41,US,1598897743
284,Werda,-25.27,23.28,52.11,32,0,4.83,BW,1598897743
285,Fort Nelson,58.81,-122.7,46.4,87,75,2.24,CA,1598897744
286,Nouadhibou,20.93,-17.03,78.8,69,3,19.46,MR,1598897046
287,Bucerías,20.75,-105.33,82.4,78,90,5.82,MX,1598897744
288,Vanderhoof,54.02,-124.02,51.91,80,70,5.1,CA,1598897744
289,Kang,-23.68,22.79,52.99,31,0,5.37,BW,1598897744
290,Giohar,2.78,45.5,77.99,74,42,16.55,SO,1598897745
291,Tahoua,14.89,5.27,89.6,59,20,4.29,NE,1598897745
292,Lydenburg,-25.1,30.46,48.06,96,96,1.99,ZA,1598897745
293,Thinadhoo,0.53,72.93,83.08,71,93,8.79,MV,1598897745
294,Zaysan,47.47,84.87,63.66,34,0,5.03,KZ,1598897746
295,Quesnel,53.0,-122.5,53.6,87,90,9.17,CA,1598897746
296,Tautira,-17.73,-149.15,75.09,78,20,4.7,PF,1598897746
297,Xingyi,24.19,102.82,58.28,92,2,2.64,CN,1598897746
298,Ürümqi,43.8,87.6,72.34,43,0,6.71,CN,1598897528
299,Roald,62.58,6.13,54.05,62,16,12.75,NO,1598897747
300,Yelizovo,53.19,158.38,39.2,100,0,8.95,RU,1598897747
301,Tel'ma,52.7,103.71,53.6,87,77,6.71,RU,1598897747
302,Barāgaon,25.43,82.82,84.2,83,40,3.36,IN,1598897747
303,Ullapool,57.9,-5.16,59.0,64,78,1.99,GB,1598897748
304,Arman',59.7,150.17,47.52,88,69,6.58,RU,1598897748
305,Kalianget,-7.05,113.93,79.63,79,87,7.63,ID,1598897748
306,Kavieng,-2.57,150.8,82.42,78,38,7.85,PG,1598897291
307,Kirakira,-10.45,161.92,79.2,83,100,10.33,SB,1598897572
308,Coquimbo,-29.95,-71.34,55.4,66,90,5.82,CL,1598897263
309,Nikol'sk,53.72,46.07,65.53,64,0,8.12,RU,1598897749
310,Araouane,18.9,-3.53,99.97,27,4,7.14,ML,1598897749
311,Tateyama,34.98,139.87,75.07,88,75,16.11,JP,1598897749
312,Avera,33.19,-82.53,85.19,79,75,6.93,US,1598897322
313,Kruisfontein,-34.0,24.73,52.0,65,33,1.99,ZA,1598897250
314,Shimoda,34.67,138.95,69.01,96,68,1.99,JP,1598897750
315,Neftçala,39.37,49.25,75.58,68,0,9.84,AZ,1598897750
316,Monaco-Ville,43.73,7.42,70.25,52,74,3.36,FR,1598897750
317,Izumrud,57.08,61.4,62.6,82,40,6.71,RU,1598897751
318,Chumikan,54.72,135.31,52.3,84,100,7.78,RU,1598897332
319,Oktyabr'skiy,54.48,53.47,63.86,75,0,7.4,RU,1598897286
320,Chino Valley,34.76,-112.45,80.04,57,40,4.7,US,1598897751
321,Monte Alegre,-2.01,-54.07,94.75,41,7,3.78,BR,1598897336
322,Fort Walton Beach,30.41,-86.62,89.49,79,20,9.17,US,1598897721
323,Normandin,48.83,-72.53,59.0,62,75,5.82,CA,1598897752
324,Ankang,32.68,109.02,67.86,83,10,0.78,CN,1598897589
325,Colares,38.8,-9.45,79.16,24,20,6.93,PT,1598897752
326,Nandi Hills,0.11,35.18,57.2,93,75,6.93,KE,1598897752
327,Kondinskoye,59.65,67.41,57.11,89,79,11.9,RU,1598897753
328,Khor,47.89,134.95,54.72,73,14,8.39,RU,1598897528
329,Wau,7.7,28.0,75.58,79,78,1.7,SS,1598897753
330,Zhigansk,66.77,123.37,44.58,90,8,4.36,RU,1598897346
331,Ponta do Sol,32.67,-17.1,71.64,61,1,4.54,PT,1598897197
332,Léogâne,18.51,-72.63,84.96,67,75,3.69,HT,1598897754
333,Petropavlovsk-Kamchatskiy,53.05,158.65,39.2,100,1,8.95,RU,1598897323
334,Bathsheba,13.22,-59.52,86.0,74,40,14.99,BB,1598897239
335,Eufaula,31.89,-85.15,88.0,76,2,1.99,US,1598897578
336,Akçaabat,41.02,39.57,77.0,78,75,4.7,TR,1598897754
337,Trairi,-3.28,-39.27,86.23,52,0,18.16,BR,1598897754
338,Joensuu,62.6,29.76,52.43,66,100,5.82,FI,1598897550
339,Rawson,-43.3,-65.1,46.99,53,19,9.55,AR,1598897755
340,Khovd,48.01,91.64,56.62,49,0,1.95,MN,1598897564
341,Perama,37.98,23.58,89.49,28,0,5.82,GR,1598897755
342,Lins,-21.68,-49.74,84.2,45,8,11.41,BR,1598897755
343,Bereda,43.27,-7.54,71.29,47,56,5.99,ES,1598897342
344,Kuchurhan,47.16,29.79,75.92,29,0,7.14,UA,1598897756
345,Ambanja,-13.68,48.45,73.04,83,94,1.59,MG,1598897756
346,Waharoa,-37.77,175.77,51.28,97,71,10.0,NZ,1598897500
347,Sumbe,-11.21,13.84,69.17,85,5,4.92,AO,1598897757
348,Port Hedland,-20.32,118.57,68.0,34,100,5.82,AU,1598897561
349,Alice Springs,-23.7,133.88,50.0,46,0,1.12,AU,1598897235
350,Lichinga,-13.31,35.24,64.2,68,43,9.17,MZ,1598897757
351,Pyu,18.48,96.43,77.25,95,100,3.4,MM,1598897757
352,Turukhansk,65.82,87.98,48.88,90,24,6.51,RU,1598897575
353,Altay,47.87,88.12,59.29,45,0,3.87,CN,1598897332
354,Khatanga,71.97,102.5,39.83,93,11,11.23,RU,1598897257
355,Deputatsky,69.3,139.9,32.04,97,33,4.07,RU,1598897203
356,Dingle,11.0,122.67,74.98,80,100,2.48,PH,1598897271
357,Alibag,18.64,72.88,80.6,94,90,6.93,IN,1598897758
358,Hirara,24.8,125.28,83.1,86,100,51.43,JP,1598897758
359,Visnes,59.36,5.22,57.31,62,76,11.41,NO,1598897759
360,Lubumbashi,-11.66,27.48,82.4,48,40,6.93,CD,1598897759
361,Leh,34.17,77.58,65.19,28,26,5.61,IN,1598897759
362,Mount Isa,-20.73,139.5,64.4,36,0,5.82,AU,1598897554
363,Morondava,-20.28,44.28,75.42,79,0,15.57,MG,1598897759
364,Ukiah,39.15,-123.21,77.88,47,90,5.82,US,1598897760
365,Kirensk,57.79,108.11,54.03,92,100,4.12,RU,1598897760
366,Japura,-0.32,102.35,78.06,81,87,1.61,ID,1598897760
367,Alugan,12.22,125.48,79.41,84,100,6.46,PH,1598897761
368,Vila Franca do Campo,37.72,-25.43,78.8,74,20,17.22,PT,1598897319
369,Kahului,20.89,-156.47,74.89,69,40,9.17,US,1598897204
370,Tevaitoa,-16.78,-151.5,77.86,74,6,22.77,PF,1598897761
371,Hervey Bay,-25.3,152.85,54.18,93,0,5.84,AU,1598897761
372,Minsk,53.9,27.57,69.8,64,92,11.18,BY,1598897762
373,Kerman,30.28,57.08,75.2,23,0,11.41,IR,1598897762
374,Arrondissement de Perpignan,42.75,2.75,74.12,36,0,11.41,FR,1598897762
375,Aného,6.23,1.6,78.8,78,20,14.99,TG,1598897763
376,Aurangabad,19.88,75.33,73.35,86,31,5.97,IN,1598897764
377,Ihosy,-22.4,46.12,61.93,92,2,7.83,MG,1598897764
378,Seminole,28.71,-81.21,75.06,94,90,5.82,US,1598897760
379,Maumere,-8.62,122.21,77.23,75,30,4.85,ID,1598897765
380,Shīeli,44.17,66.75,76.32,31,33,7.2,KZ,1598897765
381,Vardø,70.37,31.11,48.2,81,93,13.87,NO,1598897202
382,Severo-Kuril'sk,50.68,156.12,47.89,84,14,9.01,RU,1598897284
383,Pangai,-19.8,-174.35,75.2,100,20,14.92,TO,1598897765
384,Chara,56.91,118.26,54.91,80,100,2.55,RU,1598897766
385,Nyurba,63.28,118.33,47.48,90,19,4.88,RU,1598897343
386,Yelyzavethradka,48.8,32.4,75.43,29,0,5.12,UA,1598897766
387,Voh,-20.97,164.7,61.2,83,42,4.25,NC,1598897575
388,Fortuna,40.6,-124.16,69.1,52,20,8.05,US,1598897226
389,Uusikaupunki,60.8,21.41,55.4,93,59,2.24,FI,1598897281
390,Hualmay,-11.1,-77.61,65.84,68,76,13.2,PE,1598897254
391,Khani,41.96,42.96,71.6,94,0,1.12,GE,1598897320
392,Davila,18.47,120.58,81.39,80,27,14.16,PH,1598897767
393,Nizwá,22.93,57.53,87.35,38,90,4.41,OM,1598897199
394,Tamboril,19.49,-70.61,88.2,55,40,16.11,DO,1598897767
395,Gamba,-2.65,10.0,73.74,85,88,8.84,GA,1598897338
396,Stanislav,46.57,32.15,78.4,41,0,8.95,UA,1598897768
397,Aleksandrov Gay,50.15,48.57,74.57,32,0,4.81,RU,1598897571
398,Swift Current,50.28,-107.8,55.4,35,1,17.22,CA,1598897712
399,Caçador,-26.78,-51.02,74.41,55,68,5.23,BR,1598897768
400,Sittwe,20.15,92.9,80.53,85,100,4.21,MM,1598897769
401,Tazmalt,36.39,4.4,75.2,64,40,5.82,DZ,1598897769
402,Marabba,12.35,32.18,78.91,76,87,5.21,SD,1598897769
403,Manavālakurichi,8.13,77.3,84.2,79,40,5.82,IN,1598897769
404,Bengkulu,-3.8,102.27,77.14,90,94,8.28,ID,1598897271
405,Isangel,-19.55,169.27,66.74,73,18,9.53,VU,1598897645
406,Padang,-0.95,100.35,77.83,80,89,4.34,ID,1598897226
407,Bilma,18.69,12.92,97.95,26,0,4.61,NE,1598897770
408,Plettenberg Bay,-34.05,23.37,54.27,60,50,1.9,ZA,1598897771
409,West Monroe,32.52,-92.15,90.3,59,20,14.99,US,1598897771
410,Abomey-Calavi,6.45,2.36,80.6,78,40,16.11,BJ,1598897771
411,Rio Grande,-32.03,-52.1,53.29,71,100,4.7,BR,1598897238
412,Paita,-5.09,-81.11,69.8,64,40,18.34,PE,1598897771
413,Alofi,-19.06,-169.92,75.2,83,75,10.29,NU,1598897337
414,Calama,-22.47,-68.93,60.8,21,75,17.22,CL,1598897769
415,Agua Prieta,31.3,-109.57,72.0,74,35,5.99,MX,1598897772
416,Acapulco de Juárez,16.86,-99.89,87.8,62,20,4.7,MX,1598897028
417,Kenora,49.82,-94.43,59.0,58,75,10.29,CA,1598897772
418,Verkhnyaya Inta,65.98,60.31,45.81,94,100,2.13,RU,1598897773
419,Touros,-5.2,-35.46,84.2,54,75,14.99,BR,1598897200
420,Ulaanbaatar,47.91,106.88,46.4,87,20,4.47,MN,1598897773
421,Haines Junction,60.75,-137.51,52.14,64,61,11.12,CA,1598897624
422,Berbera,10.44,45.01,93.63,45,3,13.76,SO,1598897773
423,Faya,18.39,42.45,72.5,78,56,4.72,SA,1598897262
424,Kareli,22.92,79.07,76.23,91,26,5.66,IN,1598897774
425,Mingguang,32.78,117.96,76.95,91,2,4.63,CN,1598897774
426,Muri,23.37,85.87,82.4,78,75,2.57,IN,1598897774
427,Kamenka,51.32,42.77,68.0,53,0,6.96,RU,1598897302
428,Taber,49.82,-112.15,55.4,43,75,2.13,CA,1598897711
429,Longyearbyen,78.22,15.64,42.8,70,75,10.29,SJ,1598897255
430,Darhan,49.49,105.92,50.77,79,52,1.66,MN,1598897278
431,Quelimane,-17.88,36.89,77.0,83,40,3.36,MZ,1598897775
432,Nkhotakota,-12.93,34.3,76.01,51,0,1.88,MW,1598897775
433,San Ignacio,17.16,-89.07,93.11,56,7,6.93,BZ,1598897776
434,Gitega Province,-3.5,29.95,68.4,48,56,0.58,BI,1598897776
435,Verāval,20.9,70.37,80.62,85,19,10.29,IN,1598897302
436,Muswellbrook,-32.27,150.9,55.0,58,83,1.99,AU,1598897777
437,Arlit,18.74,7.39,100.89,23,14,4.21,NE,1598897634
438,Netivot,31.42,34.59,84.09,73,0,4.61,IL,1598897777
439,Kadiri,14.12,78.17,79.39,71,76,3.18,IN,1598897778
440,Kungurtug,50.6,97.52,42.42,82,10,1.12,RU,1598897778
441,Sovetskiy,61.36,63.58,51.87,84,31,8.97,RU,1598897778
442,Ciudad Ojeda,10.2,-71.31,86.22,64,94,4.83,VE,1598897778
443,Bodden Town,19.28,-81.25,87.26,79,20,3.36,KY,1598897297
444,Pemangkat,1.17,108.97,77.99,85,100,3.53,ID,1598897779
445,Talaya,61.38,152.75,43.61,67,100,7.83,RU,1598897779
446,Patan,27.67,85.33,73.4,94,75,3.36,NP,1598897779
447,Rocha,-34.48,-54.33,51.04,70,100,9.95,UY,1598897347
448,Curuguaty,-24.47,-55.69,90.05,38,83,2.89,PY,1598897780
449,Warrington,53.39,-2.58,61.25,59,40,5.82,GB,1598897739
450,Byron Bay,-28.65,153.62,61.32,82,75,12.75,AU,1598897513
451,Isla Mujeres,21.23,-86.73,87.19,70,75,9.17,MX,1598897780
452,Hokitika,-42.72,170.97,54.99,88,99,15.23,NZ,1598897307
453,Noumea,-22.28,166.46,59.0,67,27,1.12,NC,1598897265
454,Bamako,12.65,-8.0,82.4,74,75,4.7,ML,1598897147
455,Kieta,-6.22,155.63,79.77,77,27,4.79,PG,1598897781
456,Popondetta,-8.75,148.25,72.63,89,41,2.75,PG,1598897781
457,Beringovskiy,63.05,179.32,45.52,79,100,14.88,RU,1598897227
458,Sungai Raya,0.7,108.9,78.89,85,100,3.78,ID,1598897781
459,Gimli,50.63,-96.99,59.45,99,36,5.01,CA,1598897670
460,Yerbogachën,61.28,108.01,47.98,86,25,3.22,RU,1598897254
461,Along,28.17,94.77,74.05,89,93,1.05,IN,1598897782
462,Nemuro,43.32,145.57,54.16,89,52,13.0,JP,1598897293
463,Vila,42.03,-8.16,72.0,37,87,8.99,PT,1598897782
464,Fairbanks,64.84,-147.72,54.01,76,75,5.82,US,1598897176
465,St. George's,12.06,-61.75,80.6,88,75,5.61,GD,1598897504
466,Okhotsk,59.38,143.3,52.61,86,88,8.37,RU,1598897623
467,Aykhal,66.0,111.5,41.0,86,90,6.71,RU,1598897240
468,Bandarbeyla,9.49,50.81,77.23,80,0,28.32,SO,1598897646
469,Dongsheng,39.82,109.98,61.75,41,12,6.82,CN,1598897783
470,Sirte,31.21,16.59,81.1,69,0,14.81,LY,1598897783
471,Sur,22.57,59.53,84.15,63,23,9.13,OM,1598897784
472,Tromsø,69.65,18.96,48.2,81,75,18.34,NO,1598897784
473,Northam,51.03,-4.22,60.46,77,38,3.0,GB,1598897596
474,Arrondissement de Blois,47.58,1.33,65.05,55,28,1.12,FR,1598897256
475,Kankan,10.39,-9.31,76.51,92,85,6.13,GN,1598897784
476,Grahamstown,-33.3,26.53,47.37,64,50,10.36,ZA,1598897785
477,Al Bardīyah,31.76,25.09,76.55,85,0,14.2,LY,1598897785
478,Nizhnevartovsk,60.93,76.55,57.2,93,75,8.95,RU,1598897785
479,Ahipara,-35.17,173.17,55.74,81,89,7.18,NZ,1598897236
480,Soyo,-6.13,12.37,72.16,79,86,10.04,AO,1598897252
481,Tarnów,50.01,20.99,60.71,65,98,9.31,PL,1598897786
482,Sotik Post,-0.78,35.34,59.23,82,75,0.85,KE,1598897786
483,Simplício Mendes,-7.85,-41.91,95.0,20,1,14.23,BR,1598897787
484,Ucluelet,48.93,-125.55,58.37,87,75,3.36,CA,1598897768
485,Tilichiki,60.47,166.1,43.05,84,100,8.23,RU,1598897787
486,Asău,46.43,26.4,70.0,85,0,3.13,RO,1598897221
487,Kashgar,39.45,75.98,69.01,96,100,10.6,CN,1598897787
488,Emerald,-23.53,148.17,53.33,71,0,4.7,AU,1598897788
489,Bajil,15.06,43.29,91.33,54,50,3.96,YE,1598897788
490,São Félix do Xingu,-6.64,-51.99,99.37,20,26,9.31,BR,1598897788
491,Gabú,12.28,-14.22,77.47,93,70,7.23,GW,1598897788
492,Mossamedes,-15.2,12.15,63.05,72,0,8.75,AO,1598897337
493,Codrington,-38.27,141.97,38.82,83,74,8.14,AU,1598897574
494,La Santisima Trinidad,-14.83,-64.9,86.0,40,55,11.41,BO,1598897789
495,Kodoli,16.88,74.2,70.36,94,59,4.43,IN,1598897730
496,Coahuayana Viejo,18.73,-103.68,78.8,83,40,4.94,MX,1598897789
497,Pathalgaon,22.57,83.47,77.27,83,100,3.33,IN,1598897790
498,Santa Inês,-3.67,-45.38,97.27,26,0,7.23,BR,1598897561
499,Harda,22.33,77.1,75.38,91,57,7.2,IN,1598897790
500,Daşoguz,41.84,59.97,71.6,35,0,9.17,TM,1598897790
501,Xichang,27.9,102.26,63.5,76,74,1.3,CN,1598897790
502,Hambantota,6.12,81.12,81.57,77,100,15.21,LK,1598897603
503,San Jose,37.34,-121.89,67.53,60,90,2.04,US,1598897700
504,Ugoofaaru,5.67,73.0,83.03,75,78,8.84,MV,1598897791
505,Wawa,9.9,4.42,75.52,87,44,5.53,NG,1598897791
506,Vizinga,61.07,50.1,51.31,85,100,2.21,RU,1598897791
507,Aasiaat,68.71,-52.87,39.52,72,0,3.89,GL,1598897264
508,Corn Island,12.17,-83.04,82.49,78,24,10.54,NI,1598897792
509,Gemeente Wageningen,51.97,5.67,59.9,63,20,9.17,NL,1598897792
510,Semey,50.41,80.23,66.42,49,0,2.71,KZ,1598897793
511,Gayny,60.31,54.32,53.28,77,85,1.41,RU,1598897793
512,Tianpeng,30.99,103.94,71.6,94,1,3.42,CN,1598897543
513,Necochea,-38.55,-58.74,46.99,60,35,7.0,AR,1598897307
514,Biltine,14.53,20.92,73.92,75,100,14.58,TD,1598897793
515,Oktyabr'skoye,43.06,44.74,66.09,59,0,11.18,RU,1598897353
516,Miramar,25.99,-80.23,91.29,63,75,13.87,US,1598897794
517,Kumul,42.8,93.45,75.65,18,0,11.1,CN,1598897582
518,Komsomolets,53.75,62.07,66.45,77,84,1.43,KZ,1598897794
519,Lavumisa,-27.31,31.89,59.25,70,100,3.78,SZ,1598897795
520,Cap Malheureux,-19.98,57.61,71.01,78,7,5.99,MU,1598897631
521,Oranjemund,-28.55,16.43,54.68,62,1,20.42,NA,1598897340
522,Boguchany,58.38,97.45,54.43,78,100,3.4,RU,1598897795
523,Brooks,50.58,-111.89,59.0,45,64,5.28,CA,1598897796
524,Teya,60.38,92.63,54.52,91,100,5.79,RU,1598897796
525,Conde,-7.26,-34.91,84.2,58,75,18.34,BR,1598897797
526,Portree,57.41,-6.19,57.99,65,51,15.01,GB,1598897650
527,Palana,59.12,159.97,42.28,96,26,14.05,RU,1598897797
528,Mayo,38.89,-76.51,75.7,65,75,12.75,US,1598897217
529,Kuala Terengganu,5.33,103.14,82.2,83,20,3.36,MY,1598897294
530,Synya,65.37,58.04,51.55,96,100,6.69,RU,1598897618
531,Koutiala,12.39,-5.46,76.32,88,95,6.26,ML,1598897592
532,Urubichá,-15.38,-62.95,102.96,19,14,1.39,BO,1598897798
533,Nhamundá,-2.19,-56.71,94.55,41,42,1.48,BR,1598897798
534,Kyaikkami,16.08,97.57,81.41,82,100,6.17,MM,1598897799
535,Pathein,16.78,94.73,79.45,90,100,3.91,MM,1598897799
536,Sinnamary,5.38,-52.95,86.25,60,22,12.46,GF,1598897799
537,Kūhdasht,33.53,47.61,91.4,14,40,9.17,IR,1598897799
538,Evensk,61.95,159.23,42.06,76,14,2.91,RU,1598897265
539,Verkhnevilyuysk,63.45,120.32,48.04,88,15,3.47,RU,1598897800
540,Banjar,-8.19,114.97,80.6,94,40,9.17,ID,1598897800
541,Falmouth,50.15,-5.07,61.39,67,37,9.17,GB,1598897800
542,Richards Bay,-28.78,32.04,60.91,67,83,3.83,ZA,1598897243
543,Vanimo,-2.67,141.3,78.33,83,56,2.3,PG,1598897546
544,Mpika,-11.83,31.45,69.98,28,0,11.68,ZM,1598897801
545,Kulu,39.1,33.08,75.47,19,0,6.26,TR,1598897633
546,Greenwood,34.17,-82.12,85.33,66,75,5.82,US,1598897725
547,Mudgee,-32.59,149.59,39.78,93,15,3.36,AU,1598897801
548,Yangi Marg`ilon,40.43,71.72,71.6,60,2,4.7,UZ,1598897570
549,Astoria,46.19,-123.83,60.87,82,90,10.29,US,1598897686
550,Saurimo,-9.66,20.39,70.11,77,90,6.85,AO,1598897802
551,Kloulklubed,7.04,134.26,75.2,94,90,9.64,PW,1598897569
552,Loralai,30.37,68.6,75.7,57,71,2.71,PK,1598897803
553,São José de Mipibu,-6.07,-35.24,84.2,54,75,21.92,BR,1598897803
554,Penzance,50.12,-5.54,60.69,77,40,10.29,GB,1598897803
555,Sicamous,50.83,-118.99,57.2,76,90,4.7,CA,1598897681
556,São Miguel do Araguaia,-13.28,-50.16,101.35,15,23,7.52,BR,1598897662
557,Matcha,54.63,42.35,69.28,59,76,10.27,RU,1598897804
558,Yukamenskoye,57.89,52.24,62.85,94,99,8.88,RU,1598897804
559,Megion,61.03,76.11,57.2,93,75,8.95,RU,1598897801
560,Porbandar,21.64,69.61,80.92,83,55,11.99,IN,1598897317
561,Kununurra,-15.77,128.73,84.2,28,90,6.93,AU,1598897412
562,Arrondissement de Vire,48.92,-0.83,62.6,55,63,8.05,FR,1598897805
563,Pedasí,7.53,-80.03,82.24,70,56,2.95,PA,1598897805
564,Belmonte,-15.86,-38.88,78.8,69,20,9.17,BR,1598897805
565,Broken Hill,-31.95,141.43,44.6,61,0,4.7,AU,1598897278
566,Pangody,65.85,74.49,50.27,78,100,17.72,RU,1598897331
567,Rongcheng,30.63,117.85,77.47,89,71,1.63,CN,1598897806
568,Lusambo,-4.97,23.45,77.76,69,57,2.24,CD,1598897806
569,Ngong,-1.36,36.66,68.94,40,65,10.29,KE,1598897806
570,Omboué,-1.57,9.26,74.71,82,91,9.86,GA,1598897573
571,Ola,59.58,151.28,48.11,86,75,12.44,RU,1598897807
572,Esim,4.87,-2.24,75.72,83,74,10.36,GH,1598897354
573,Nguruka,-5.11,31.04,77.14,26,4,5.39,TZ,1598897808
574,Port Moresby,-9.44,147.18,75.2,94,40,23.04,PG,1598897327
575,Saint-Augustin,51.23,-58.65,50.47,88,100,6.24,CA,1598897325
576,Sørland,67.67,12.69,53.6,81,75,21.92,NO,1598897808
577,Velikodvorskiy,55.25,40.67,70.97,58,90,9.62,RU,1598897808
578,Mbaïki,3.87,17.99,72.36,95,77,1.7,CF,1598897808
579,Tomatlán,19.93,-105.25,78.89,91,100,1.05,MX,1598897809
580,Dukat,62.55,155.55,38.48,76,100,6.6,RU,1598897809
